[
    {"name": "Tehran", "country": "IR", "lat": 35.6892, "lon": 51.3890},
    {"name": "Berlin", "country": "DE", "lat": 52.5200, "lon": 13.4050},
    {"name": "Delhi", "country": "IN", "lat": 28.6139, "lon": 77.2090},
    {"name": "Munich", "country": "DE", "lat": 48.1351, "lon": 11.5820},
    {"name": "Warsaw", "country": "PL", "lat": 52.2297, "lon": 21.0122}
]