[
{ "name": "Tehran", "country": "Iran", "lat": 35.6892, "lon": 51.3890 },
  { "name": "Isfahan", "country": "Iran", "lat": 32.6546, "lon": 51.6680 },
  { "name": "Mashhad", "country": "Iran", "lat": 36.2972, "lon": 59.6067 },
  { "name": "Shiraz", "country": "Iran", "lat": 29.5918, "lon": 52.5837 },
  
  { "name": "Berlin", "country": "Germany", "lat": 52.5200, "lon": 13.4050 },
  { "name": "Munich", "country": "Germany", "lat": 48.1351, "lon": 11.5820 },
  { "name": "Hamburg", "country": "Germany", "lat": 53.5511, "lon": 9.9937 },
  
  { "name": "Vienna", "country": "Austria", "lat": 48.2082, "lon": 16.3738 },
  { "name": "Salzburg", "country": "Austria", "lat": 47.8095, "lon": 13.0550 }
]